{"provinces":[{"label":"AB","id":"AB","cities":[{"label":"Edmonton","id":"Edmonton","locations":[{"label":"Millwoods Town Centre Professional Building\n","street":"6203 28 Ave NW","app":"#208","posta_code":"T6K 4E8","lat":53.4582091,"lng":-113.4289758},{"label":"124th St Clinic A","street":"10839 124th Street","app":"#110","posta_code":"T5M 0H4","lat":53.553798,"lng":-113.535599},{"label":"124th St Clinic B","street":"10839 124th Street","app":"#150","posta_code":"T5M 0H4","lat":53.553798,"lng":-113.535599},{"label":"Campus Towers","street":"8625 112th St. ","app":312,"posta_code":"T6G 1K8","lat":53.5226169,"lng":-113.520446},{"label":"Zeidler Ledcor Centre","street":"130 University Campus","app":"Room L-10A","posta_code":"T6G 2X8","lat":53.544389,"lng":-113.4909267}]},{"label":"Calgary","id":"Calgary","locations":[{"label":"Bow River","street":"4411 16th Ave NW","app":"Suite 160","posta_code":"T3B 0M3","lat":51.0679522,"lng":-114.159162},{"label":"The Doctor's Office - McKnight","street":"5486 Falsbridge Dr NE","app":null,"posta_code":"T3J 5H4","lat":51.0974539,"lng":-113.9558313},{"label":"MidPark","street":"290 Midpark Way SE","app":"Suite 110","posta_code":"T2X 1P1","lat":50.9097249,"lng":-114.0634384},{"label":"South Trail","street":"4307 130th Ave SE","app":"# 82","posta_code":"T2Z 3V8","lat":50.9299311,"lng":-113.9703144}]},{"label":"Grand Prairie","id":"Grand Prairie","locations":[{"label":"Grande Prairie","street":"10309 98 Street","app":null,"posta_code":"T8V 2E7","lat":55.1737714,"lng":-118.7882704}]},{"label":"Red Deer","id":"Red Deer","locations":[{"label":"Red Deer","street":"6900 Taylor Drive ","app":"2nd Floor","posta_code":"T4P 1X5","lat":52.29135460000001,"lng":-113.8386249}]},{"label":"Lethbridge","id":"Lethbridge","locations":[{"label":"Lethbridge","street":"740 4th Ave S","app":"Suite 215","posta_code":"T1J 0N9","lat":49.6941583,"lng":-112.8358293}]}]},{"label":"QC","id":"QC","cities":[{"label":"Montr\u00e9al","id":"Montr\u00e9al","locations":[{"label":"Polyclinique Maisonneuve-Rosemont (HMR)","street":"5345 Boul de l'Assomption","app":"Suite 175","posta_code":"H1T 2M4"},{"label":"Seaforth Medical Building","street":"3550 Chemin C\u00f4te des Neiges","app":"Suite 360","posta_code":"H3H 1V4"}]},{"label":"Mont-Saint-Hilaire","id":"Mont-Saint-Hilaire","locations":[{"label":"Clinique M\u00e9dical St-Hilaire","street":"470 Boulevard Sir Wilfrid Laurier","app":"Suite 206","posta_code":"J3H 6K3"}]},{"label":"Cap aux meules","id":"Cap aux meules","locations":[{"label":"Iles De La Madeline","street":"539 Chemin Principal","app":"Suite 3","posta_code":"J4T 1E7"}]},{"label":"Saint-Agathe-Des-Mont","id":"Saint-Agathe-Des-Mont","locations":[{"label":"St. Agathe","street":"16 Saint-Paul Street East","app":null,"posta_code":"J8C 2K3"}]},{"label":"St-Eustache","id":"St-Eustache","locations":[{"label":"Polyclinique St-Eustache","street":"75 rue Grignon","app":null,"posta_code":"J7P 0C5"}]},{"label":"Amos","id":"Amos","locations":[{"label":"Polyclinique les Sources-Amos","street":"641 4e Rue Ouest","app":null,"posta_code":"J9T 2S1"}]},{"label":"Drummondville","id":"Drummondville","locations":[{"label":"Clinique de la Marconi","street":"3525 boul. St. Joseph","app":"bureau 201","posta_code":"J2B 0H3"}]},{"label":"LaSalle","id":"LaSalle","locations":[{"label":"Clinique M\u00e9dical Nazareth","street":"1771 aver Dollard","app":"Salle 209","posta_code":"H8N 1T9"}]},{"label":"Plessisville","id":"Plessisville","locations":[{"label":"CLSC de l'\u00c9rable","street":"1331 rue Saint-Calixte","app":null,"posta_code":"G6L 1P4"}]},{"label":"Qu\u00e9bec","id":"Qu\u00e9bec","locations":[{"label":"Clinique St-Louis","street":"3165, chemin St-Louis","app":"Suite 430-D","posta_code":"G1W 4R4"}]},{"label":"Sherbrooke","id":"Sherbrooke","locations":[{"label":"Clin. de Sant\u00e9 Jacques-Cartier","street":"1815 rue King Ouest","app":"bureau 200","posta_code":"J1J 2E3"}]},{"label":"St-Georges de Beauce","id":"St-Georges de Beauce","locations":[{"label":"Clinique Express","street":"8750 boul. Lacroix","app":"bureau 2","posta_code":"G5Y 2B5"}]},{"label":"St-J\u00e9r\u00f4me","id":"St-J\u00e9r\u00f4me","locations":[{"label":"Clinique des Basses Laurentides","street":"2100 boul Cur\u00e9 Labelle","app":"Suite 101","posta_code":"J7Y 1S8"}]}]},{"label":"ON","id":"ON","cities":[{"label":"Toronto","id":"Toronto","locations":[{"label":"Downsview","street":"4430 Bathurst Street","app":"Unit 314","posta_code":"M3H 3S3"},{"label":"Evans Ave","street":"233 Evans Ave","app":null,"posta_code":"M8Z 1J6"},{"label":"King","street":"11King St. West","app":"Suite 205","posta_code":"M5H 4C7"},{"label":"Uptown Health Centre-Eglinton","street":"243 Eglinton Ave West","app":null,"posta_code":"M4R 1B1"}]},{"label":"Orangeville","id":"Orangeville","locations":[{"label":"Orangeville","street":"150 rolling Hills Drive","app":null,"posta_code":"L9W 4X8"}]},{"label":"Thunder Bay","id":"Thunder Bay","locations":[{"label":"Harbourview Medical Centre","street":"1040 Oliver Rd Suite 301","app":"Rm. 343","posta_code":"P7B 7A5"}]},{"label":"London","id":"London","locations":[{"label":"London East","street":"1329 Fuller Street","app":"#4","posta_code":"N5Y 4R1"},{"label":"London North","street":"267 Fanshawe Park W","app":null,"posta_code":"N6G 4Y5"},{"label":"London West","street":"1051 Wonderland Road South","app":null,"posta_code":"N6K 3X4"}]},{"label":"North York","id":"North York","locations":[{"label":"York-Finch Medical Centre","street":"2115 Finch Ave West","app":"Suite 405","posta_code":"M3N 2V6"}]},{"label":"Brampton","id":"Brampton","locations":[{"label":"Brampton Clinic","street":"40 Finchgate Blvd","app":"Suite 314","posta_code":"L6T 3J1"}]},{"label":"Pembroke","id":"Pembroke","locations":[{"label":"Pembroke - Ottawa Valley Health and Wellness Centre","street":"315 Pembroke Street East","app":"Room 110","posta_code":"K8A 1G8"}]},{"label":"Whitby","id":"Whitby","locations":[{"label":"Whitby","street":"220 Dundas Street West","app":"Unit 301","posta_code":"L1N 8M7"}]},{"label":"Kitchener","id":"Kitchener","locations":[{"label":"Belgage Medical Arts Building- Waterloo","street":"525 Belmont Ave. West","app":"Unit 108","posta_code":"N2M 2C8"}]},{"label":"Ottawa","id":"Ottawa","locations":[{"label":"Trainyards","street":"550 Terminal Avenue","app":"B22","posta_code":"K1G 0Z3"},{"label":"Ottawa Gastrointestinal Institute (OGI)","street":"1910 St-Laurent Blvd","app":"Unit 29","posta_code":"K1G 1A4"},{"label":"Hampton","street":"1419 Carling Ave","app":"Suite 216","posta_code":"K1Z 7L6"}]},{"label":"Kanata","id":"Kanata","locations":[{"label":"Active Care Fam Med Cen Kanata","street":"1108 Klondike Road","app":"Unit A","posta_code":"K2K 0G1"}]},{"label":"Hamilton","id":"Hamilton","locations":[{"label":"Westmount Community Health","street":"723 Rymal Rd West","app":"Suite 700","posta_code":"L9B 2W2"}]},{"label":"Mississauga","id":"Mississauga","locations":[{"label":"Mississauga -Millcreek","street":"6400 Millcreek Drive","app":"Unit 9","posta_code":"L5N 3E7"},{"label":"Credit Valley Health Centre","street":"2555 Erin Centre Blvd","app":"Unit 318","posta_code":"L5M 6Z7"}]},{"label":"Oakville","id":"Oakville","locations":[{"label":"Oakville","street":"1235 Trafalgar Rd","app":"Suite 205","posta_code":"L6H 3P1"}]},{"label":"Kingston","id":"Kingston","locations":[{"label":"Kingston Medical","street":"800 Princess Street","app":"Suite 203","posta_code":"K7L 5E4"}]},{"label":"Windsor","id":"Windsor","locations":[{"label":"Windsor","street":"2301 Tecumseh Road","app":"Suite 140","posta_code":"N8W 1E6"}]},{"label":"St. Catharines","id":"St. Catharines","locations":[{"label":"Niagara Peninsula Arthritis Centre","street":"2 Lakeshore Road","app":"Unit 5","posta_code":"L2N 7E4"}]},{"label":"Barrie","id":"Barrie","locations":[{"label":"Huronia Urgent Care Clinic","street":"480 Huronia Rd","app":"Unit 102","posta_code":"L4N 8Z1"}]},{"label":"Burlington","id":"Burlington","locations":[{"label":"The Wharton Medical Clinic (Burlington)","street":"2951 Walkers Line","app":"2nd Floor","posta_code":"L5M 4Y1"}]},{"label":"Newmarket","id":"Newmarket","locations":[{"label":"York Medical Health Ctre","street":"17215 Leslie St.","app":"Unit C","posta_code":"L3Y 8E4"}]},{"label":"Owen Sound","id":"Owen Sound","locations":[{"label":"Owen Sound","street":"960- 3rd Ave East ","app":null,"posta_code":"N4K 2K9"}]},{"label":"Peterborough","id":"Peterborough","locations":[{"label":"Peterborough Medical Centre","street":"707 Charlotte Street","app":null,"posta_code":"K9J 7B3"}]},{"label":"Richmond Hill","id":"Richmond Hill","locations":[{"label":"Fusion Care Clinic","street":"20 Vogell Rd","app":"Unit C","posta_code":"L4B 3K4"}]},{"label":"Scarborough","id":"Scarborough","locations":[{"label":"CPM Scarborough (Infusion)","street":"1200 Markham Road","app":"Suite 420","posta_code":"M1H 3C3"}]},{"label":"Timmins","id":"Timmins","locations":[{"label":"Timmins 101 Mall","street":"38 Pine Street North","app":"Unit 149","posta_code":"P4N 6K6"}]},{"label":"Wallaceburg","id":"Wallaceburg","locations":[{"label":"Wallaceburg Community Medical","street":"30 McNaughton Ave","app":null,"posta_code":"N8A 1R9"}]}]},{"label":"BC","id":"BC","cities":[{"label":"Port Alberni","id":"Port Alberni","locations":[{"label":"Port Alberni","street":"4949 Maple Way","app":"Suite 109","posta_code":"V9Y 0B2"}]},{"label":"Pitt Meadows","id":"Pitt Meadows","locations":[{"label":"Pitt Meadows","street":"19070 Lougheed Highway","app":"#108B","posta_code":"V3Y 2M6"}]},{"label":"Abbottsford","id":"Abbottsford","locations":[{"label":"Abbotsford","street":"2031 McCallum Road","app":"suite 104","posta_code":"V2S 3N5"}]},{"label":"Vancouver","id":"Vancouver","locations":[{"label":"North Van","street":"125 E 13th St","app":"Suite 411","posta_code":"V7L 2L3"}]},{"label":"Kelowna","id":"Kelowna","locations":[{"label":"Kelowna","street":"3320 Richter St,","app":"Suite 305","posta_code":"V1W 4V5"}]},{"label":"Kamloops","id":"Kamloops","locations":[{"label":"Kamloops","street":"321 Nicola Street","app":"Suite 401","posta_code":"V2C 6G6"}]},{"label":"Coquitlam,","id":"Coquitlam,","locations":[{"label":"Coquitlam","street":"435-S North Road","app":null,"posta_code":"V3K 3V9"}]},{"label":"Surrey","id":"Surrey","locations":[{"label":"Surrey - Centre","street":"9656 King George Blvd.","app":"#303","posta_code":"V3T 2V5"},{"label":"Surrey - Fraser Heights","street":"15966 108th Ave","app":"#106","posta_code":"V4N 5V6"}]},{"label":"Nanaimo","id":"Nanaimo","locations":[{"label":"Nanaimo","street":"1450 Waddington Rd","app":null,"posta_code":"V9S 4V9"}]},{"label":"Vancouver ","id":"Vancouver ","locations":[{"label":"Kitsilano","street":"2685 West Broadway","app":null,"posta_code":"V6K 2G2"}]},{"label":"Chilliwack","id":"Chilliwack","locations":[{"label":"Chilliwack","street":"46198 Yale Road","app":null,"posta_code":"V2P 2P3"}]},{"label":"Richmond","id":"Richmond","locations":[{"label":"Richmond ","street":"6051 Gilbert Rd.","app":"Suite 317","posta_code":"V7C 3V3"}]},{"label":"Vernon, ","id":"Vernon, ","locations":[{"label":"Vernon","street":"3207 30th Ave","app":"Suite 200","posta_code":"V1T 2C6"}]}]},{"label":"SK","id":"SK","cities":[{"label":"Saskatoon","id":"Saskatoon","locations":[{"label":"Medical Arts Building ","street":"750 Spadina Crescent East","app":"#50","posta_code":"S7K 3H3"}]},{"label":"Regina","id":"Regina","locations":[{"label":"Regina","street":"1635 11th Ave","app":null,"posta_code":"S4P 0H5"}]}]},{"label":"NS","id":"NS","cities":[{"label":"Dartmouth","id":"Dartmouth","locations":[{"label":"Urgent Care- Woodside Walk-In Clinic","street":"18 Acadia Ave","app":null,"posta_code":"B2Y 4H3"}]}]}]}